,City,Country,Latitude,Longitude,Temperature (F),Humidity (%),Cloudiness (%),Wind Speed (mph)
0,hithadhoo,MV,-0.6,73.0833,82.31,64,10,4.83
1,carnarvon,AU,-24.8667,113.6333,62.6,67,0,5.75
2,yellowknife,CA,62.456,-114.3525,9.9,52,40,13.8
3,cherskiy,RU,68.75,161.3,21.4,83,60,8.39
4,maceio,BR,-9.6658,-35.7353,77.0,88,0,6.91
5,marovoay,MG,-16.1,46.6333,73.4,94,40,2.3
6,tilichiki,RU,60.4667,166.1,30.87,99,100,1.45
7,hofn,IS,64.2539,-15.2082,38.44,73,18,3.56
8,marystown,CA,47.1666,-55.1483,41.27,95,100,36.48
9,barrow,US,71.2906,-156.7887,19.4,73,1,19.57
10,busselton,AU,-33.65,115.3333,55.22,93,100,1.86
11,georgetown,MY,5.4112,100.3354,77.76,89,40,4.61
12,raga,SS,8.4596,25.678,77.13,63,31,6.11
13,albany,US,42.6001,-73.9662,50.02,31,4,10.0
14,nyurba,RU,63.2842,118.3319,16.72,76,98,10.25
15,portoferraio,IT,42.8115,10.3146,57.33,76,100,5.01
16,puerto ayora,EC,-0.7393,-90.3518,76.77,81,38,7.7
17,butaritari,KI,3.0707,172.7902,83.17,76,87,13.02
18,beppu,JP,33.2736,131.4919,55.4,71,0,1.14
19,wewak,PG,-3.5534,143.6268,81.14,80,73,2.73
20,cidreira,BR,-30.1811,-50.2056,64.09,70,35,10.13
21,tasiilaq,GL,65.6145,-37.6368,39.2,75,20,7.76
22,karratha,AU,-20.7377,116.8463,74.84,33,0,9.01
23,olavarria,AR,-36.8927,-60.3225,54.57,81,9,2.08
24,codrington,AU,-38.2667,141.9667,56.71,74,70,1.83
25,husavik,IS,66.0449,-17.3389,35.6,80,0,4.61
26,jamestown,US,42.097,-79.2353,49.3,40,90,6.91
27,cape town,ZA,-33.9258,18.4232,61.25,88,75,14.97
28,bud,US,39.447,-86.1758,73.35,28,1,18.41
29,faanui,PF,-16.4833,-151.75,81.28,66,93,4.0
30,yar-sale,RU,66.8333,70.8333,33.46,97,100,12.75
31,tutoia,BR,-2.7619,-42.2744,79.2,81,96,7.7
32,arraial do cabo,BR,-22.9661,-42.0278,77.0,83,40,4.61
33,geraldton,AU,-28.7667,114.6,60.8,59,29,10.36
34,bambanglipuro,ID,-7.95,110.2833,74.89,85,25,4.14
35,sao jose da coroa grande,BR,-8.8978,-35.1478,77.97,82,80,7.96
36,mehamn,NO,71.0357,27.8492,31.68,65,98,12.91
37,rikitea,PF,-23.1203,-134.9692,77.68,73,79,7.45
38,grand-santi,GF,4.25,-54.3833,73.98,98,100,3.15
39,kapaa,US,22.0752,-159.319,76.91,65,1,12.66
40,port alfred,ZA,-33.5906,26.891,66.54,84,99,10.16
41,coos bay,US,43.3665,-124.2179,54.91,71,90,13.8
42,kavaratti,IN,10.5669,72.642,83.77,74,2,7.83
43,ushuaia,AR,-54.8,-68.3,44.6,81,75,3.44
44,sanmenxia,CN,34.7747,111.1814,56.93,77,98,2.73
45,alamos,MX,27.0167,-108.9333,86.0,46,96,12.35
46,shubarshi,KZ,48.5872,57.1869,59.18,42,100,9.84
47,emba,KZ,48.8264,58.1442,60.98,37,99,12.15
48,avarua,CK,-21.2078,-159.775,82.4,74,20,5.75
49,the pas,CA,53.8251,-101.2541,53.6,47,40,11.5
50,krasnoselkup,RU,65.7,82.4667,27.14,90,71,14.52
51,punta arenas,CL,-53.15,-70.9167,44.29,93,90,5.75
52,high rock,BS,26.6208,-78.2833,78.8,57,20,14.97
53,pangnirtung,CA,66.1451,-65.7125,35.6,87,90,6.91
54,laguna de perlas,NI,12.3429,-83.6712,82.4,78,40,4.61
55,son la,VN,21.3167,103.9,68.41,97,100,2.17
56,provideniya,RU,64.3833,-173.3,37.4,70,0,4.34
57,north battleford,CA,52.7834,-108.2847,60.8,18,75,21.85
58,norman wells,CA,65.282,-126.8329,15.8,53,75,9.22
59,bambui,BR,-20.0064,-45.9769,72.14,47,70,3.29
60,filingue,NE,14.3521,3.3168,91.58,24,80,4.65
61,mataura,NZ,-46.1927,168.8643,45.0,83,97,3.0
62,coihaique,CL,-45.5752,-72.0662,51.8,87,75,6.91
63,castro,BR,-24.7911,-50.0119,62.26,74,60,3.27
64,vernon,CA,50.2581,-119.2691,65.32,22,77,4.61
65,da nang,VN,16.0678,108.2208,80.6,89,40,5.75
66,osmena,PH,10.5208,119.9258,82.18,74,75,12.88
67,nome,US,64.5011,-165.4064,43.45,57,1,4.61
68,pevek,RU,69.7008,170.3133,22.71,90,99,4.79
69,vaini,TO,-21.2,-175.2,77.0,94,75,9.22
70,joshimath,IN,30.5667,79.5667,50.49,52,0,9.62
71,benguela,AO,-12.5763,13.4055,77.45,82,14,1.61
72,eirunepe,BR,-6.6603,-69.8736,73.72,90,74,3.24
73,mar del plata,AR,-38.0023,-57.5575,58.33,77,0,5.75
74,tuatapere,NZ,-46.1333,167.6833,45.0,83,96,3.0
75,lagoa,PT,39.05,-27.9833,59.77,89,92,10.4
76,longyearbyen,SJ,78.2186,15.6401,19.4,63,40,10.36
77,sao raimundo das mangabeiras,BR,-7.0219,-45.4811,75.34,85,97,2.89
78,nagaur,IN,27.2,73.7333,83.5,9,0,10.47
79,gravdal,NO,68.1214,13.5031,35.37,64,40,15.26
80,atuona,PF,-9.8,-139.0333,79.88,75,79,14.67
81,nchelenge,ZM,-9.3451,28.734,69.21,87,100,4.41
82,makushino,RU,55.2103,67.2442,41.13,69,61,8.19
83,narsaq,GL,60.9167,-46.05,37.4,87,75,5.75
84,mbandaka,CD,0.0487,18.2603,71.87,91,65,4.97
85,port keats,AU,-14.25,129.55,79.02,76,64,6.13
86,igarka,RU,67.4667,86.5833,15.12,90,27,10.71
87,anaconda,US,46.1285,-112.9423,47.17,29,40,6.91
88,marsa matruh,EG,31.3525,27.2453,59.0,77,0,6.91
89,bluff,NZ,-46.6,168.3333,45.0,83,56,3.0
90,thompson,CA,55.7435,-97.8558,50.0,43,40,11.5
91,sitka,US,57.0531,-135.33,50.0,76,1,3.44
92,havelock,US,34.8791,-76.9013,65.95,64,0,5.99
93,goderich,CA,43.7501,-81.7165,41.0,60,100,3.44
94,inhambane,MZ,-23.865,35.3833,71.87,87,1,5.55
95,khatanga,RU,71.9667,102.5,19.74,94,100,15.79
96,berlevag,NO,70.8578,29.0864,31.53,72,100,13.27
97,chuy,UY,-33.6971,-53.4616,56.16,74,8,8.05
98,la ronge,CA,55.1001,-105.2842,41.0,60,100,18.41
99,paamiut,GL,61.994,-49.6678,34.61,91,72,5.73
100,tuktoyaktuk,CA,69.4541,-133.0374,10.4,72,1,12.66
101,antofagasta,CL,-23.65,-70.4,64.4,72,0,9.22
102,kodiak,US,57.79,-152.4072,44.6,76,90,10.36
103,acari,PE,-15.4311,-74.6158,72.01,76,6,4.72
104,tiksi,RU,71.6872,128.8694,16.2,91,100,11.99
105,vardo,NO,70.3705,31.1107,28.4,74,20,11.5
106,new norfolk,AU,-42.7826,147.0587,52.7,74,12,3.04
107,puerto suarez,BO,-18.95,-57.8,75.2,94,75,3.49
108,torquay,GB,50.4638,-3.5143,41.7,39,59,7.23
109,lebu,CL,-37.6167,-73.65,54.55,86,3,10.16
110,attock,PK,33.7695,72.3611,73.0,50,33,1.99
111,sioux lookout,CA,50.1001,-91.917,35.6,80,90,9.22
112,lazurne,UA,46.084,32.5295,39.99,100,15,1.01
113,broome,US,42.2506,-75.833,46.22,29,1,16.11
114,anjozorobe,MG,-18.4,47.8667,60.8,94,75,9.22
115,henties bay,NA,-22.116,14.2845,62.01,88,16,3.0
116,sorong,ID,-0.8833,131.25,79.68,82,89,4.21
117,diffa,NE,13.3154,12.6113,87.76,10,1,8.43
118,ponta do sol,PT,32.6667,-17.1,56.57,79,78,1.01
119,aykhal,RU,66.0,111.5,8.76,94,100,12.84
120,souillac,MU,-20.5167,57.5167,78.8,83,75,12.66
121,baykit,RU,61.67,96.37,24.76,88,24,1.92
122,olafsvik,IS,64.8945,-23.7142,42.21,64,0,3.58
123,nam som,TH,17.7704,102.1895,72.9,99,100,1.72
124,ribeira grande,PT,38.5167,-28.7,60.69,84,100,3.18
125,biggar,GB,55.6167,-3.5167,44.69,78,94,1.01
126,seoul,KR,37.5683,126.9778,54.25,71,0,3.44
127,hermanus,ZA,-34.4187,19.2345,62.01,84,68,4.99
128,nuuk,GL,64.1835,-51.7216,37.2,93,90,6.91
129,henderson,US,36.0397,-114.9819,66.65,29,1,12.66
130,biak,ID,-0.9131,122.8766,77.88,80,75,5.03
131,ambilobe,MG,-13.2,49.05,71.33,94,14,3.2
132,hirara,JP,24.8,125.2833,68.0,77,20,5.75
133,bethel,US,41.3712,-73.414,56.03,18,1,16.11
134,airai,TL,-8.9266,125.4092,60.82,64,63,1.95
135,ustye,RU,59.6304,39.736,34.25,95,100,8.16
136,labytnangi,RU,66.6572,66.4183,33.19,98,100,7.31
137,isangel,VU,-19.55,169.2667,80.6,78,40,5.75
138,fortuna,US,40.5982,-124.1573,55.47,54,40,10.36
139,dikson,RU,73.5069,80.5464,31.82,98,100,17.09
140,hobart,AU,-42.8794,147.3294,51.8,76,20,5.75
141,bam,IR,29.106,58.357,76.19,21,45,5.7
142,okhotsk,RU,59.3833,143.3,24.03,75,94,2.84
143,aklavik,CA,68.2191,-135.0107,21.2,45,100,8.05
144,katsuura,JP,35.1333,140.3,52.41,54,40,5.75
145,galesong,ID,-5.3166,119.3661,73.4,100,20,1.14
146,cacule,BR,-14.5033,-42.2222,79.05,50,95,4.56
147,rio grande,BR,-32.035,-52.0986,59.0,84,84,10.85
148,touros,BR,-5.1989,-35.4608,78.8,83,20,8.05
149,beringovskiy,RU,63.05,179.3167,32.81,92,76,5.46
150,demba,CD,-5.51,22.2667,70.48,96,96,2.28
151,pontianak,ID,-0.0333,109.3333,75.2,100,40,3.02
152,mogadishu,SO,2.0371,45.3438,82.69,75,84,7.23
153,lalmohan,BD,22.3384,90.7419,81.19,80,5,8.77
154,saint anthony,US,45.0205,-93.218,45.46,81,90,10.36
155,ayagoz,KZ,47.9714,80.4392,45.57,40,97,2.91
156,bambous virieux,MU,-20.3428,57.7575,77.94,83,75,12.66
157,noumea,NC,-22.2763,166.4572,75.7,73,40,14.97
158,glendive,US,47.1053,-104.7125,57.7,41,40,8.05
159,solnechnyy,RU,50.7214,136.6319,46.44,47,83,5.84
160,ixtapa,MX,20.7,-105.2,81.3,74,75,14.97
161,almaznyy,RU,48.0448,40.045,42.8,100,20,11.18
162,macusani,PE,-14.0833,-70.4333,36.09,83,45,3.62
163,tsotilion,GR,40.2667,21.3167,50.0,76,80,3.44
164,coquimbo,CL,-29.9533,-71.3436,60.8,72,20,9.22
165,tessalit,ML,20.1986,1.0114,89.67,8,29,6.73
166,shahreza,IR,32.0339,51.8794,60.01,49,86,4.45
167,meulaboh,ID,4.1363,96.1285,76.68,89,99,3.38
168,saint-philippe,RE,-21.3585,55.7679,71.56,78,90,21.85
169,mahasamund,IN,21.1,82.1,79.92,13,86,1.25
170,komsomolskiy,UZ,40.4272,71.7189,60.8,48,0,6.91
171,uppsala,SE,60.0,17.75,28.92,80,48,5.75
172,grindavik,IS,63.8424,-22.4338,41.0,87,20,4.61
173,muros,ES,42.7762,-9.0603,55.54,87,61,5.99
174,tonekabon,IR,36.8163,50.8738,60.8,94,75,4.34
175,umm lajj,SA,25.0213,37.2685,77.52,73,0,6.17
176,hamilton,US,39.1834,-84.5333,73.98,31,1,12.66
177,daru,PG,-9.0763,143.2092,80.06,84,88,4.29
178,auki,SB,-8.7676,160.7034,84.6,72,80,2.57
179,sampit,ID,-2.5333,112.95,74.82,94,96,1.52
180,farah,AF,32.5,62.5,70.27,20,51,3.4
181,nurota,UZ,40.5614,65.6886,60.8,39,0,11.5
182,severo-kurilsk,RU,50.6789,156.125,31.28,96,100,21.63
183,saint john,CA,45.2727,-66.0677,41.72,87,90,13.8
184,palmer,US,42.1584,-72.3287,54.19,26,20,13.8
185,sao filipe,CV,14.8961,-24.4956,71.8,76,15,9.78
186,bull savanna,JM,17.8868,-77.5902,76.93,74,66,2.3
187,bondo,CD,3.8146,23.6866,69.87,88,27,2.06
188,bintulu,MY,3.1667,113.0333,77.0,94,40,2.3
189,bubaque,GW,11.2833,-15.8333,78.37,70,47,17.2
190,esperance,AU,-33.8667,121.9,68.0,34,100,17.27
191,marathon,US,44.9,-89.7668,46.15,57,90,14.97
192,kruisfontein,ZA,-34.0033,24.7314,63.0,84,77,4.0
193,beloha,MG,-25.1667,45.05,71.74,73,6,5.7
194,manama,BH,26.2154,50.5832,80.6,74,100,8.05
195,bira,RU,49.0,132.4667,49.87,34,99,4.74
196,fort nelson,CA,58.8053,-122.7002,26.6,74,90,11.5
197,bac lieu,VN,9.285,105.7244,81.03,80,91,4.54
198,maragogi,BR,-9.0122,-35.2225,77.7,83,77,7.49
199,turinsk,RU,58.0458,63.696,40.82,61,13,13.56
200,bhadravati,IN,13.8667,75.7167,75.54,77,0,2.77
201,ahuimanu,US,21.4447,-157.8378,80.04,54,20,8.05
202,cabo san lucas,MX,22.8909,-109.9124,74.53,56,90,13.8
203,plastun,RU,44.7561,136.2939,52.45,35,5,1.72
204,cockburn town,TC,21.4612,-71.1419,78.55,73,0,12.82
205,klaksvik,FO,62.2266,-6.589,39.2,81,100,19.57
206,kahului,US,20.8947,-156.47,76.64,57,40,14.97
207,talcahuano,CL,-36.7167,-73.1167,60.8,77,0,10.36
208,saskylakh,RU,71.9167,114.0833,5.2,95,96,4.47
209,port elizabeth,ZA,-33.918,25.5701,62.6,94,75,5.75
210,nikolskoye,RU,59.7035,30.7861,40.32,75,75,6.71
211,san patricio,US,28.017,-97.5169,78.93,69,90,14.97
212,tromso,NO,69.6496,18.957,29.57,93,90,5.75
213,sri aman,MY,1.2376,111.4621,77.0,94,94,0.72
214,chadiza,ZM,-14.0678,32.4392,63.84,83,69,3.53
215,kisangani,CD,0.5167,25.2,70.0,90,41,0.58
216,alpena,US,45.0617,-83.4327,34.5,80,90,11.5
217,tamandare,BR,-8.7597,-35.1047,77.47,82,75,7.38
218,vila velha,BR,-20.3297,-40.2925,78.8,89,20,8.05
219,saldanha,ZA,-33.0117,17.9442,62.6,94,80,20.71
220,kiama,AU,-34.6833,150.8667,60.96,84,1,1.99
221,kasulu,TZ,-4.5767,30.1025,71.6,94,20,2.57
222,arona,ES,28.0996,-16.681,62.98,77,20,4.61
223,porto velho,BR,-8.7619,-63.9039,78.8,78,40,3.44
224,andros town,BS,24.7,-77.7667,80.6,74,0,13.8
225,san cristobal,VE,7.7669,-72.225,84.2,65,40,11.5
226,cocoa beach,US,28.32,-80.6076,76.64,64,1,9.22
227,bandarbeyla,SO,9.4942,50.8122,82.72,73,87,4.85
228,santa maria,BR,-29.6842,-53.8069,62.6,63,0,3.44
229,qaanaaq,GL,77.484,-69.3632,39.22,70,93,7.09
230,dingli,MT,35.8614,14.3822,60.89,88,0,19.57
231,luderitz,NA,-26.6481,15.1594,60.48,86,82,7.43
232,ostrovnoy,RU,68.0531,39.5131,29.43,71,100,15.7
233,almaty,KZ,43.25,76.95,44.6,76,20,4.47
234,bologoye,RU,57.8799,34.1068,34.03,96,100,4.85
235,nurlat,RU,54.4277,50.8051,39.97,56,88,2.33
236,kropotkin,RU,45.4375,40.5756,41.0,97,63,8.39
237,ancud,CL,-41.8697,-73.8203,53.17,82,75,8.05
238,bengkulu,ID,-3.8004,102.2655,75.06,88,87,4.12
239,sunyani,GH,7.3399,-2.3268,72.45,97,100,7.16
240,yenagoa,NG,4.9247,6.2642,78.94,89,46,4.03
241,saint george,US,37.1041,-113.5841,57.72,47,75,21.85
242,ilulissat,GL,69.2167,-51.1,48.2,46,75,17.27
243,shelburne,CA,44.0787,-80.2041,47.91,34,90,5.75
244,waterloo,CA,43.4668,-80.5164,44.4,53,90,12.66
245,dawson creek,CA,55.7666,-120.2362,44.6,42,20,10.36
246,tubmanburg,LR,6.8708,-10.8172,76.89,94,52,0.34
247,sherbakul,RU,54.6316,72.3963,41.0,70,0,2.24
248,chapais,CA,49.7834,-74.8492,35.6,69,90,12.66
249,kaitangata,NZ,-46.2817,169.8464,44.01,84,70,11.01
250,leningradskiy,RU,69.3833,178.4167,30.13,86,38,4.79
251,chokurdakh,RU,70.6333,147.9167,23.32,86,99,4.54
252,torbay,CA,47.6666,-52.7314,39.56,65,90,23.02
253,bredasdorp,ZA,-34.5322,20.0403,51.8,93,30,1.14
254,salalah,OM,17.0151,54.0924,82.4,74,40,5.75
255,issenye,TZ,-2.0,34.3333,61.92,96,71,3.44
256,banda aceh,ID,5.5577,95.3222,79.72,79,88,1.92
257,freeport,US,40.6576,-73.5832,58.96,21,1,14.97
258,katav-ivanovsk,RU,54.7531,58.1956,34.81,81,39,4.29
259,nizhniy ingash,RU,56.2,96.53,35.01,99,100,1.86
260,annau,TM,37.8876,58.516,69.8,28,13,2.3
261,luanda,AO,-8.8368,13.2343,77.0,88,40,5.75
262,westport,US,41.1415,-73.3579,59.58,18,1,14.97
263,nelson bay,AU,-32.7167,152.15,59.0,94,40,10.36
264,santhia,IT,45.3663,8.1726,49.69,94,100,5.17
265,nemuro,JP,43.3236,145.575,36.55,70,16,8.39
266,shingu,JP,33.7333,135.9833,60.8,63,40,6.91
267,vostok,RU,46.4856,135.8833,47.97,33,31,3.06
268,sambava,MG,-14.2667,50.1667,74.61,90,54,7.87
269,talara,PE,-4.5772,-81.2719,75.2,69,0,14.97
270,ahipara,NZ,-35.1667,173.1667,63.97,70,23,10.54
271,ubon ratchathani,TH,15.1667,105.1667,78.8,83,75,9.22
272,maarianhamina,AX,60.0973,19.9348,35.6,87,20,6.91
273,arizona,US,34.5003,-111.501,56.35,29,99,4.0
274,kerrobert,CA,51.9168,-109.1348,57.2,23,75,14.97
275,port hawkesbury,CA,45.6169,-61.3485,44.1,93,90,12.66
276,college,US,64.8569,-147.8028,55.8,26,75,7.18
277,aripuana,BR,-9.1667,-60.6333,73.47,97,87,1.28
278,ngunguru,NZ,-35.6167,174.5,69.01,69,13,5.99
279,korhogo,CI,9.45,-5.6333,77.63,70,98,2.77
280,venice,US,27.0998,-82.4543,79.9,69,1,12.66
281,lamesa,US,32.7376,-101.951,84.99,6,100,25.01
282,homer,US,59.6425,-151.5483,52.93,24,1,8.05
283,verkhnevilyuysk,RU,63.4453,120.3167,16.48,79,100,10.09
284,kloulklubed,PW,7.0419,134.2556,78.8,89,75,6.2
285,toba,JP,34.4833,136.85,54.0,66,97,1.99
286,vanino,RU,49.0869,140.2543,45.99,41,24,3.27
287,waipawa,NZ,-41.4122,175.5153,52.9,82,90,18.41
288,constitucion,CL,-35.3333,-72.4167,58.24,71,0,10.65
289,mahebourg,MU,-20.4081,57.7,78.8,83,75,12.66
290,tucuman,AR,-26.8241,-65.2226,69.8,68,75,3.44
291,poronaysk,RU,49.2167,143.1167,34.95,68,15,3.4
292,upernavik,GL,72.7868,-56.1549,35.51,81,65,4.54
293,zhanaozen,KZ,43.3,52.8,61.97,49,63,6.42
294,zemetchino,RU,53.4973,42.6163,40.69,83,71,6.44
295,cairns,AU,-16.9167,145.7667,76.6,83,90,11.5
296,necochea,AR,-38.5473,-58.7368,57.0,85,9,1.01
297,sukumo,JP,32.9333,132.7333,62.4,49,86,3.78
298,liverpool,GB,53.4106,-2.9779,51.76,58,95,4.61
299,fatick,SN,14.3581,-16.5858,76.96,61,7,4.61
300,abu samrah,SY,35.3029,37.1841,58.06,81,0,17.11
301,kieta,PG,-6.2167,155.6333,85.44,65,84,1.03
302,kilindoni,TZ,-7.9139,39.6668,79.14,84,97,10.38
303,ust-nera,RU,64.5667,143.2,24.19,88,100,3.44
304,moron,AR,-34.6534,-58.6198,62.06,74,47,2.35
305,taft,IR,31.7471,54.2088,69.8,46,40,4.61
306,muana,BR,-1.5283,-49.2167,75.69,93,70,4.76
307,jutai,BR,-5.1833,-68.9,75.07,91,96,2.57
308,turukhansk,RU,65.8167,87.9833,20.88,79,8,9.17
309,jieshi,CN,22.8134,115.8257,71.28,84,100,12.91
310,hanzhong,CN,33.0728,107.0303,56.32,82,100,0.51
311,hadejia,NG,12.4498,10.0444,88.92,9,34,8.86
312,trenggalek,ID,-8.05,111.7167,74.59,95,88,1.79
313,kathu,TH,7.9178,98.3332,81.01,100,75,9.53
314,road town,VG,18.4167,-64.6167,80.24,78,20,9.22
315,dingle,PH,10.9995,122.6711,78.6,78,52,7.7
316,poum,NC,-20.2333,164.0167,76.06,71,39,20.56
317,portland,US,45.5234,-122.6762,56.35,67,75,4.61
318,petatlan,MX,17.5167,-101.2667,86.0,62,75,6.51
319,hervey bay,AU,-25.2986,152.8535,73.26,72,22,9.22
320,asuncion nochixtlan,MX,17.4667,-97.2333,82.4,15,8,12.5
321,margate,GB,51.3813,1.3862,42.84,80,95,3.0
322,pangody,RU,65.85,74.4859,31.57,94,99,15.57
323,athens,GR,37.9795,23.7162,57.25,76,20,1.01
324,lagunas,PE,-5.2269,-75.6753,74.34,95,95,1.81
325,ibotirama,BR,-12.1853,-43.2206,82.09,50,83,1.95
326,grakhovo,RU,56.0502,51.9676,37.4,52,0,6.71
327,baoying,CN,33.2292,119.3092,58.32,96,100,2.17
328,plombieres,BE,50.735,5.953,40.62,81,98,4.7
329,arkhara,RU,49.4212,130.0842,53.92,32,81,15.99
330,yuancheng,CN,36.652,107.7896,47.59,33,51,2.89
331,lagos de moreno,MX,21.35,-101.9167,89.15,11,75,16.11
332,hilo,US,19.7297,-155.09,72.54,57,90,9.22
333,magdagachi,RU,53.45,125.8,49.32,44,100,11.79
334,tocopilla,CL,-22.092,-70.1979,66.87,66,11,4.25
335,compostela,PH,7.6731,126.0889,77.45,91,100,1.83
336,macaubas,BR,-13.0194,-42.6986,75.65,59,66,3.29
337,bathsheba,BB,13.2167,-59.5167,80.6,57,40,14.97
338,bunia,CD,1.5667,30.25,61.77,92,96,1.21
339,deputatskiy,RU,69.3,139.9,26.65,90,100,2.06
340,wamba,NG,8.9333,8.6,75.07,77,76,3.22
341,santona,ES,43.4439,-3.4576,57.4,94,90,4.61
342,nouadhibou,MR,20.931,-17.0347,66.2,88,0,12.66
343,ondjiva,AO,-17.0667,15.7333,65.12,33,4,4.76
344,okato,NZ,-39.2,173.8833,54.97,69,99,11.01
345,whakatane,NZ,-37.9585,176.9854,57.0,79,92,1.01
346,owando,CG,-0.4819,15.8999,72.75,92,42,1.74
347,goedereede,NL,51.8175,3.9806,43.74,77,100,14.18
348,forio,IT,40.7342,13.8646,62.74,59,40,20.71
349,zhigansk,RU,66.7697,123.3711,14.29,88,100,17.31
350,honningsvag,NO,70.9821,25.9704,33.85,59,99,16.62
351,cayenne,GF,4.9333,-52.3333,77.59,94,75,5.75
352,mana,GF,5.6592,-53.7767,77.02,90,100,10.94
353,safranbolu,TR,41.2508,32.6942,39.96,93,22,2.8
354,vestmannaeyjar,IS,63.4427,-20.2734,44.8,90,12,9.33
355,korla,CN,41.7597,86.1469,53.55,34,13,5.79
356,ankang,CN,32.68,109.0172,57.18,86,100,0.54
357,batticaloa,LK,7.7102,81.6924,78.53,84,38,8.93
358,guerrero negro,MX,27.9769,-114.0611,64.11,57,97,16.24
359,kavieng,PG,-2.5744,150.7967,83.66,70,48,1.7
360,wattegama,LK,6.7989,81.4808,73.62,95,22,2.84
361,bara,NG,10.3744,10.7288,86.31,33,49,10.92
362,puerto escondido,MX,15.85,-97.0667,86.0,70,40,6.91
363,palana,RU,59.1167,159.9667,25.59,90,100,4.36
364,temirtau,KZ,50.0544,72.9483,35.6,93,0,6.71
365,marzuq,YE,14.4,46.4667,74.07,47,99,7.07
366,pimentel,PE,-6.8367,-79.9342,66.27,73,0,20.71
367,mandalgovi,MN,45.7625,106.2708,29.28,69,100,15.43
368,sitrah,BH,26.1547,50.6206,80.6,74,100,8.05
369,cozumel,MX,20.5083,-86.9458,85.48,58,40,6.91
370,port lincoln,AU,-34.7333,135.8667,62.91,72,95,6.64
371,chicama,PE,-7.8447,-79.1469,62.6,94,75,9.22
372,jacqueville,CI,5.2052,-4.4146,82.4,94,20,8.05
373,mumbwa,ZM,-14.9783,27.0619,64.02,68,83,3.33
374,russell,US,32.3502,-85.1999,79.79,36,1,6.91
375,launceston,AU,-41.45,147.1667,45.25,87,33,6.91
376,manta,EC,-0.95,-80.7333,84.2,70,20,8.05
377,talnakh,RU,69.4865,88.3972,11.32,80,92,8.99
378,mandera,KE,3.9366,41.867,78.46,66,83,4.56
379,clyde river,CA,70.4692,-68.5914,24.8,100,75,3.44
380,shimoda,JP,34.6667,138.95,54.52,48,97,1.01
381,kurilsk,RU,45.2333,147.8833,30.27,61,7,22.68
382,aleksandrovskoye,RU,44.7142,43.0008,50.0,87,75,20.13
383,port macquarie,AU,-31.4333,152.9167,62.4,81,3,1.99
384,saint-raymond,CA,45.467,-73.6095,49.75,37,95,8.05
385,wanxian,CN,30.8039,108.3897,61.14,91,100,1.66
386,gaimersheim,DE,48.807,11.368,41.02,52,20,8.57
387,comodoro rivadavia,AR,-45.8667,-67.5,66.2,42,0,27.63
388,sept-iles,CA,50.2001,-66.3821,43.21,87,90,12.66
389,morden,CA,49.1919,-98.1014,48.22,53,100,3.44
390,sechura,PE,-5.5569,-80.8222,75.36,64,25,16.67
391,mercedes,AR,-34.6515,-59.4307,60.35,62,19,1.01
392,laukaa,RU,58.7372,29.8453,35.76,98,100,3.83
393,lorengau,PG,-2.0226,147.2712,83.93,70,93,1.1
394,hay river,CA,60.8156,-115.7999,7.68,66,100,8.05
395,tanete,ID,-3.9443,119.7848,76.14,90,79,4.72
396,buchanan,LR,5.8808,-10.0467,78.8,94,20,6.13
397,nara,JP,34.6851,135.8049,51.73,66,0,3.44
398,purpe,RU,64.4803,76.6897,32.0,83,100,19.3
399,maniitsoq,GL,65.4167,-52.9,33.3,98,100,8.86
400,algiers,DZ,36.7525,3.042,57.2,94,20,2.3
401,maryborough,AU,-25.5333,152.7,70.29,65,27,8.7
402,manaure,CO,11.7751,-72.4445,81.95,68,100,23.2
403,rijssen,NL,52.308,6.5211,39.22,73,99,3.0
404,cap malheureux,MU,-19.9842,57.6142,77.0,82,100,8.99
405,galeana,MX,24.8333,-100.0667,82.0,25,93,7.0
406,helena,US,46.5927,-112.0361,55.45,28,75,9.22
407,nanortalik,GL,60.1432,-45.2371,33.76,97,97,9.69
408,te anau,NZ,-45.4167,167.7167,42.64,78,72,0.67
409,general pico,AR,-35.6566,-63.7568,56.84,74,0,7.36
410,palembang,ID,-2.9167,104.7458,75.2,94,20,2.3
411,lompoc,US,34.6391,-120.4579,57.43,44,1,19.57
412,mbamba,NG,9.9833,13.1,87.89,34,74,2.1
413,bandrele,YT,-12.9067,45.1914,78.8,89,0,2.3
414,sinnamary,GF,5.3833,-52.95,77.72,88,100,10.83
415,outlook,CA,51.5001,-107.0513,56.41,24,63,13.8
416,vagur,FO,61.4732,-6.8119,40.73,79,100,26.19
417,udachnyy,RU,66.4167,112.4,7.66,94,98,8.55
418,fairbanks,US,64.8378,-147.7164,56.17,24,1,5.75
419,athabasca,CA,54.7169,-113.2854,44.49,49,100,10.36
420,the valley,AI,18.217,-63.0578,79.63,73,20,11.5
421,mitsamiouli,KM,-11.3847,43.2844,80.83,75,49,9.46
422,burdur,TR,37.7203,30.2908,46.4,71,0,17.27
423,george,ZA,-33.963,22.4617,57.2,100,40,4.61
424,conceicao do castelo,BR,-20.3683,-41.2439,65.12,91,51,1.72
425,los llanos de aridane,ES,28.6585,-17.9182,62.53,73,90,3.44
426,tombouctou,ML,20.0,-3.0,91.11,12,95,13.11
427,faya,SA,18.3851,42.4509,57.18,82,0,3.56
428,hami,CN,42.8,93.45,46.47,18,3,7.49
429,taoudenni,ML,22.6783,-3.9836,91.96,13,29,11.52
430,obidos,BR,-1.9175,-55.5181,76.41,93,100,1.23
431,wad rawah,SD,15.1603,33.1397,90.27,17,84,7.61
432,scarborough,GB,54.2797,-0.4044,42.62,76,92,5.01
433,flinders,AU,-34.5833,150.8552,61.84,88,1,1.01
434,teya,RU,60.3778,92.6267,30.81,93,45,2.84
435,cooma,AU,-36.2333,149.1333,42.8,100,90,3.44
436,am timan,TD,11.0297,20.2827,90.72,26,55,2.01
437,sola,VU,-13.8833,167.55,81.41,74,82,8.52
438,hasaki,JP,35.7333,140.8333,50.97,62,20,4.61
439,port moresby,PG,-9.4431,147.1797,78.8,89,40,6.91
440,kuznechnoye,RU,61.12,29.8686,37.99,88,100,5.7
441,richards bay,ZA,-28.783,32.0377,65.57,93,42,5.79
442,khuzdar,PK,27.7384,66.6434,72.73,34,62,4.88
443,hualmay,PE,-11.0964,-77.6139,67.55,85,12,9.95
444,jumla,NP,29.2747,82.1838,46.63,54,0,4.5
445,port hardy,CA,50.6996,-127.4199,52.21,76,40,9.22
446,victoria,HK,22.2855,114.1577,73.8,88,100,15.97
447,petropavlovsk-kamchatskiy,RU,53.0452,158.6483,33.8,100,90,2.24
448,ushtobe,KZ,45.2514,77.9838,52.18,47,45,7.87
449,narrabri,AU,-30.3167,149.7833,58.6,72,0,4.61
450,saint-michel-des-saints,CA,46.6834,-73.9159,37.0,54,78,13.2
451,sumbe,AO,-11.2061,13.8437,79.09,87,7,6.71
452,kirakira,SB,-10.4544,161.9205,84.61,65,78,3.47
453,alice springs,AU,-23.7,133.8833,53.6,50,0,3.44
454,eyl,SO,7.9803,49.8164,82.78,74,92,5.77
455,novikovo,RU,51.1537,37.8879,36.54,87,100,15.86
456,shaoguan,CN,24.8,113.5833,66.7,97,100,1.48
457,longhua,CN,23.6137,114.1919,69.76,97,100,0.78
458,mount gambier,AU,-37.8333,140.7667,53.6,82,75,6.91
459,saint-augustin,CA,51.226,-58.6502,38.14,80,100,32.91
460,buarcos,PT,40.166,-8.8768,58.95,94,20,1.14
461,iqaluit,CA,63.7506,-68.5145,24.4,80,90,24.16
462,oktyabrskiy,RU,54.4815,53.471,40.17,61,61,1.3
463,sokolo,ML,14.7328,-6.1219,95.77,13,29,9.71
464,sao joao da barra,BR,-21.6403,-41.0511,73.53,92,23,9.8
465,ossora,RU,59.2353,163.0719,32.25,98,100,3.44
466,les cayes,HT,18.2,-73.75,78.78,72,58,2.33
467,gamba,GA,-2.65,10.0,78.31,89,93,4.7
468,okha,RU,53.5739,142.9478,31.75,79,17,13.69
469,japura,ID,-0.3167,102.35,72.68,98,61,1.52
470,iracoubo,GF,5.4802,-53.2011,77.4,88,100,11.05
471,jhalawar,IN,24.6,76.15,85.21,9,5,3.6
472,viedma,AR,-40.8135,-62.9967,61.5,42,0,9.01
473,lima,PE,-12.0432,-77.0282,65.64,77,0,9.22
474,pontes e lacerda,BR,-15.2261,-59.3353,69.49,85,52,3.94
475,jiujiang,CN,29.7333,115.9833,60.53,95,100,5.7
476,bikaner,IN,28.0167,73.3,84.52,9,0,9.19
477,atikokan,CA,48.7555,-91.6216,35.37,84,100,8.03
478,boa vista,BR,2.8197,-60.6733,78.8,83,75,5.75
479,cocula,MX,20.3652,-103.8222,87.4,12,75,8.05
480,marawi,PH,7.9986,124.2928,75.0,90,100,5.01
481,laurel,US,39.0993,-76.8483,64.81,27,1,4.61
482,beidao,CN,34.5686,105.8933,50.0,67,65,1.32
483,raudeberg,NO,61.9875,5.1352,37.0,77,95,4.59
484,laguna,US,38.421,-121.4238,66.29,31,1,3.44
485,campo grande,BR,-20.4428,-54.6464,71.6,68,20,9.22
486,lavrentiya,RU,65.5833,-171.0,32.14,87,94,2.28
487,berdigestyakh,RU,62.0989,126.6992,24.24,87,99,8.95
488,vao,NC,-22.6667,167.4833,73.63,65,64,19.24
489,mount isa,AU,-20.7333,139.5,78.8,50,43,10.36
490,teruel,ES,40.6667,-0.6667,50.4,93,0,3.44
491,oussouye,SN,12.485,-16.5469,72.46,94,0,9.22
492,voskresenskoye,RU,56.8381,45.4317,32.85,83,8,3.36
493,inirida,CO,3.8653,-67.9239,77.05,92,97,1.66
494,jalu,LY,29.0331,21.5482,68.22,32,4,4.74
495,cabedelo,BR,-6.9811,-34.8339,77.0,94,20,9.22
496,kota bahru,MY,6.1333,102.2386,77.0,94,20,3.44
497,urkut,HU,47.085,17.6439,38.57,86,0,2.3
498,manado,ID,1.487,124.8455,75.2,94,20,3.04
499,verkhovazhye,RU,60.7472,42.0465,36.25,97,100,5.55
500,ucluelet,CA,48.9329,-125.5528,55.13,82,75,9.22
501,ust-koksa,RU,50.2696,85.6108,35.96,65,100,2.33
502,harper,LR,4.375,-7.7169,80.6,82,20,7.25
503,xining,CN,36.6167,101.7667,37.44,50,91,3.6
504,naze,JP,28.3667,129.4833,68.0,64,20,8.05
505,lydenburg,ZA,-25.0978,30.4597,46.0,46,1,1.01
506,saint-louis,SN,16.3333,-15.0,87.8,33,0,2.3
507,olinda,BR,-8.0089,-34.8553,78.8,73,40,8.05
508,opuwo,NA,-18.0607,13.84,63.37,57,7,3.51
509,samarai,PG,-10.6167,150.6667,81.97,77,92,3.87
510,dukat,RU,62.55,155.55,19.15,73,5,5.37
511,deer lake,CA,49.1667,-57.4316,50.0,71,90,14.97
512,sobolevo,RU,54.4299,31.8996,30.31,77,13,4.65
513,ha giang,VN,22.8333,104.9833,71.78,98,100,1.81
514,muravlenko,RU,63.7898,74.523,34.2,98,100,12.62
515,don sak,TH,9.3168,99.6918,77.43,100,20,2.3
516,asau,RO,46.4333,26.4,41.0,64,100,2.17
517,nhulunbuy,AU,-12.2333,136.7667,78.8,89,90,5.46
518,mareeba,AU,-17.0,145.4333,75.2,83,90,11.5
519,novopokrovka,UA,49.8425,36.5477,35.31,80,90,8.95
520,ilfracombe,GB,51.2093,-4.1134,43.34,88,82,7.0
521,amalapuram,IN,16.5833,82.0167,77.34,82,1,2.37
522,kununurra,AU,-15.7667,128.7333,71.6,88,40,5.35
523,iacobeni,RO,47.4333,25.3167,34.0,75,95,0.96
524,shrewsbury,GB,52.7101,-2.7521,46.53,57,90,3.44
525,gorontalo,ID,0.5412,123.0595,78.08,84,52,2.26
526,sengiley,RU,53.9622,48.7944,32.0,69,99,2.24
527,kavali,IN,14.9167,79.9833,77.02,88,0,8.72
528,washington,US,47.5001,-120.5015,64.04,25,82,4.0
529,severodvinsk,RU,64.5635,39.8302,32.0,80,90,8.95
530,mafeteng,LS,-29.823,27.2374,52.21,38,85,4.41
531,bandung,ID,-6.9039,107.6186,72.0,89,7,1.99
532,amambai,BR,-23.1042,-55.2258,61.18,52,0,6.04
533,east london,ZA,-33.0153,27.9116,68.58,77,96,8.81
534,coolum beach,AU,-26.5333,153.1,68.63,81,39,11.32
535,mitchell,US,43.7094,-98.0298,71.6,46,1,9.22
536,surdila-gaiseanca,RO,45.0667,27.3333,47.57,75,94,7.76
537,coahuayana,MX,18.7333,-103.6833,86.0,45,90,13.8
538,rocha,UY,-34.4833,-54.3333,53.58,80,0,5.99
539,duku,NG,11.2361,4.9073,88.99,39,67,4.0
540,camacha,PT,33.0833,-16.3333,62.6,82,40,11.5
541,belyy yar,RU,53.6039,91.3903,30.2,74,99,2.24
542,elk point,US,42.6833,-96.6836,82.67,37,1,4.61
543,irbeyskoye,RU,55.6428,95.4522,36.5,89,98,3.24
544,grand gaube,MU,-20.0064,57.6608,77.0,82,100,8.99
545,staryy nadym,RU,65.6118,72.6842,34.23,94,100,17.52
546,sokol,RU,59.4617,40.1206,34.12,91,100,8.25
547,evensk,RU,61.95,159.2333,19.0,80,20,1.21
548,amargosa,BR,-13.0303,-39.6047,67.37,93,4,5.37
549,kulhudhuffushi,MV,6.6221,73.07,84.07,71,13,6.08
550,port-cartier,CA,50.0334,-66.8654,43.29,87,90,12.66
551,verkh-chebula,RU,56.0308,87.6218,41.97,72,100,7.81
552,roseau,DM,15.3017,-61.3881,81.01,54,20,6.91
553,rio gallegos,AR,-51.6226,-69.2181,62.6,42,40,11.5
554,kargasok,RU,59.0556,80.8572,35.87,93,94,9.48
555,huarmey,PE,-10.0681,-78.1522,69.31,81,8,10.6
556,taree,AU,-31.9,152.4667,58.84,94,5,5.75
557,yerbogachen,RU,61.2767,108.0108,17.82,78,11,8.01
558,balabac,PH,7.9868,117.0645,81.14,76,80,3.62
559,leirvik,NO,59.7798,5.5005,40.3,80,53,2.86
560,magadan,RU,59.5667,150.8,21.72,79,15,1.83
561,tura,IN,25.5198,90.2201,76.66,41,87,5.91
562,puteyets,RU,65.1716,57.091,37.69,91,100,4.29
563,paracuru,BR,-3.41,-39.0306,82.0,75,40,13.0
564,ambunti,PG,-4.2365,142.8448,78.46,91,62,1.66
565,cotonou,BJ,6.3654,2.4183,86.0,79,20,10.36
566,vega de alatorre,MX,20.0333,-96.6333,83.1,73,63,15.3
